,City,Cloudiness,Country,Date,Humidity,Lat,Lng,Max Temperature,Wind Speed
0,tasiilaq,100,GL,1562201919,75,65.61,-37.64,44.6,10.29
1,jamestown,0,AU,1562201919,73,-33.21,138.6,49.58,9.86
2,bethel,90,US,1562201920,93,60.79,-161.76,57.2,18.34
3,saldanha,78,PT,1562201920,57,41.42,-6.55,70.1,7.54
4,port moresby,75,PG,1562201920,78,-9.47,147.16,78.8,17.22
5,hobart,20,AU,1562201920,81,-42.88,147.33,44.6,6.93
6,grand gaube,20,MU,1562201920,86,-20.01,57.66,70.0,9.84
7,trairi,22,BR,1562201683,96,-3.28,-39.27,71.54,4.27
8,rikitea,100,PF,1562201921,81,-23.12,-134.97,65.24,23.98
9,abyek,0,IR,1562201921,29,36.04,50.53,76.4,7.61
10,merauke,68,ID,1562201921,80,-8.49,140.4,76.22,16.51
11,hammerfest,90,NO,1562201921,100,70.66,23.68,44.6,11.41
12,kapaa,1,US,1562201921,66,22.08,-159.32,84.2,9.17
13,punta arenas,75,CL,1562201922,92,-53.16,-70.91,30.2,6.93
14,pascagoula,1,US,1562201646,74,30.37,-88.56,89.6,3.36
15,belaya gora,99,RU,1562201922,54,68.54,146.19,53.18,6.6
16,cochrane,88,CL,1562201922,94,-47.25,-72.57,18.44,2.57
17,kavaratti,100,IN,1562201922,82,10.57,72.64,82.16,17.22
18,yellowknife,90,CA,1562201923,71,62.45,-114.38,57.2,13.87
19,butaritari,8,KI,1562201923,67,3.07,172.79,83.96,2.82
20,puerto ayora,40,EC,1562201923,73,-0.74,-90.35,73.4,16.11
21,kozhva,6,RU,1562201923,79,65.11,57.05,63.98,3.87
22,tuktoyaktuk,75,CA,1562201923,46,69.44,-133.03,69.8,14.99
23,constitucion,90,MX,1562201924,35,23.99,-104.67,71.6,17.22
24,casper,1,US,1562201840,53,42.87,-106.31,78.01,13.87
25,ushuaia,0,AR,1562201911,92,-54.81,-68.31,24.8,12.75
26,bambous virieux,1,MU,1562201891,86,-20.34,57.76,70.0,6.69
27,jiangyou,100,CN,1562201924,89,31.78,104.73,62.18,1.52
28,quilmana,19,PE,1562201924,87,-12.95,-76.38,59.66,10.87
29,kruisfontein,0,ZA,1562201924,83,-34.0,24.73,49.94,2.37
30,bredasdorp,0,ZA,1562201925,93,-34.53,20.04,55.0,4.7
31,lorengau,3,PG,1562201925,76,-2.02,147.27,82.16,5.5
32,meulaboh,100,ID,1562201925,79,4.14,96.13,81.26,7.54
33,marawi,34,PH,1562201925,79,8.0,124.29,81.0,1.99
34,lompoc,1,US,1562201926,52,34.64,-120.46,77.0,13.87
35,hilo,90,US,1562201926,65,19.71,-155.08,82.4,13.87
36,pampierstad,0,ZA,1562201926,36,-27.78,24.69,44.36,8.16
37,cape town,20,ZA,1562201926,93,-33.93,18.42,55.99,8.05
38,tiksi,100,RU,1562201926,94,71.64,128.87,37.7,4.61
39,airai,5,TL,1562201927,55,-8.93,125.41,74.42,2.73
40,khatanga,92,RU,1562201927,85,71.98,102.47,56.24,8.55
41,busselton,100,AU,1562201735,44,-33.64,115.35,62.01,27.18
42,iquitos,0,PE,1562201898,83,-3.75,-73.25,80.6,2.17
43,fairbanks,75,US,1562201920,44,64.84,-147.72,78.01,10.29
44,qaqortoq,0,GL,1562201927,50,60.72,-46.03,53.6,5.82
45,norman wells,75,CA,1562201927,49,65.28,-126.83,68.0,5.82
46,chuy,20,UY,1562201928,72,-33.69,-53.46,44.54,17.4
47,mayo,90,CA,1562201928,26,63.59,-135.9,78.8,11.41
48,morsbach,0,DE,1562201928,76,50.86,7.73,55.99,1.12
49,arraial do cabo,0,BR,1562201928,88,-22.97,-42.02,66.2,2.24
50,cockburn town,0,TC,1562201928,78,21.46,-71.14,82.52,15.05
51,vaini,75,IN,1562201733,100,15.34,74.49,71.6,5.82
52,georgetown,40,GY,1562201929,83,6.8,-58.16,82.4,9.17
53,kieta,57,PG,1562201929,68,-6.22,155.63,83.42,4.0
54,grindavik,90,IS,1562201929,93,63.84,-22.43,51.01,9.17
55,lavrentiya,0,RU,1562201929,50,65.58,-170.99,63.98,15.41
56,guerrero negro,0,MX,1562201929,83,27.97,-114.04,66.14,17.45
57,punta de bombon,99,PE,1562201929,92,-17.17,-71.79,55.52,5.88
58,albany,1,US,1562201930,57,42.65,-73.75,81.0,3.36
59,saint-augustin,20,CA,1562201930,54,45.63,-73.98,82.99,3.36
60,calama,0,CL,1562201930,24,-22.46,-68.93,55.4,8.05
61,mataura,71,NZ,1562201930,88,-46.19,168.86,45.0,1.99
62,clyde river,90,CA,1562201930,73,70.47,-68.59,32.0,6.93
63,souillac,0,FR,1562201931,53,45.6,-0.6,73.99,9.17
64,otane,100,NZ,1562201931,94,-39.89,176.62,52.0,8.88
65,honiara,20,SB,1562201660,59,-9.43,159.96,89.6,11.41
66,diffa,93,NE,1562201931,41,13.32,12.61,90.62,6.02
67,san borja,94,BO,1562201931,95,-14.86,-66.75,72.98,2.15
68,klaksvik,100,FO,1562201931,100,62.23,-6.59,50.0,8.05
69,la orilla,48,MX,1562201932,58,18.0,-102.23,88.1,6.8
70,kindu,48,CD,1562201932,70,-2.95,25.92,73.16,2.06
71,shelburne,1,CA,1562201932,39,44.08,-80.2,81.0,4.7
72,araouane,2,ML,1562201748,10,18.9,-3.53,100.34,9.66
73,portland,1,US,1562201932,50,43.66,-70.25,78.8,5.82
74,qaanaaq,74,GL,1562201743,44,77.48,-69.36,47.24,2.57
75,avarua,18,CK,1562201933,69,-21.21,-159.78,73.4,14.99
76,itarema,1,BR,1562201933,93,-2.92,-39.92,74.06,5.06
77,hermanus,0,ZA,1562201933,86,-34.42,19.24,55.99,18.9
78,monrovia,75,LR,1562201933,94,6.33,-10.8,77.0,3.36
79,sao filipe,78,CV,1562201933,88,14.9,-24.5,73.52,13.71
80,provideniya,20,RU,1562201933,87,64.42,-173.23,48.2,11.18
81,saskylakh,86,RU,1562201934,64,71.97,114.09,54.44,6.51
82,assiniboia,81,CA,1562201934,55,49.63,-105.99,66.86,9.57
83,sattenapalle,97,IN,1562201934,67,16.39,80.15,82.52,6.91
84,vila franca do campo,40,PT,1562201934,77,37.72,-25.43,68.0,6.93
85,port alfred,0,ZA,1562201645,88,-33.59,26.89,57.99,4.0
86,ponta do sol,53,BR,1562201935,61,-20.63,-46.0,64.34,5.48
87,alindao,100,CF,1562201935,97,5.04,21.21,70.28,3.67
88,zalantun,69,CN,1562201935,64,48.0,122.72,71.54,2.62
89,pevek,100,RU,1562201935,98,69.7,170.27,32.3,3.22
90,san jeronimo,0,PE,1562201935,87,-13.65,-73.37,47.06,4.0
91,campo verde,20,PE,1562201936,74,-8.47,-74.81,82.4,2.24
92,taoudenni,0,ML,1562201936,14,22.68,-3.98,99.8,9.24
93,bathsheba,40,BB,1562201936,78,13.22,-59.52,82.4,19.46
94,ribeira grande,0,PT,1562201936,88,38.52,-28.7,68.48,7.16
95,daru,97,PG,1562201936,74,-9.07,143.21,77.84,9.53
96,tautira,40,PF,1562201936,54,-17.73,-149.15,80.6,4.7
97,lakes entrance,0,AU,1562201937,87,-37.88,147.99,48.99,1.99
98,egvekinot,21,RU,1562201937,46,66.32,-179.17,65.06,16.06
99,rio cuarto,0,AR,1562201937,42,-33.13,-64.35,46.4,5.82
100,dunedin,63,NZ,1562201710,60,-45.87,170.5,52.0,14.0
101,port elizabeth,1,US,1562201692,74,39.31,-74.98,84.2,6.93
102,namatanai,71,PG,1562201937,82,-3.66,152.44,79.64,14.47
103,portobelo,40,PA,1562201938,94,9.55,-79.65,82.4,2.24
104,lasa,0,CY,1562201938,83,34.92,32.53,77.0,6.93
105,surt,0,LY,1562201938,72,31.21,16.59,77.66,11.01
106,sandy bay,20,AU,1562201938,81,-42.9,147.33,44.6,6.93
107,barrow,79,AR,1562201938,73,-38.31,-60.23,39.32,10.6
108,saint-philippe,1,CA,1562201939,51,45.36,-73.48,82.99,6.93
109,ilulissat,0,GL,1562201939,73,69.22,-51.1,48.2,4.7
110,asino,36,RU,1562201939,91,57.0,86.14,63.8,8.84
111,gisborne,96,NZ,1562201939,79,-38.66,178.02,59.0,11.01
112,tadine,29,NC,1562201939,62,-21.55,167.88,72.08,0.92
113,mikhaylovka,47,RU,1562201940,69,52.96,103.29,64.7,9.17
114,ouegoa,72,NC,1562201940,64,-20.34,164.44,72.44,2.82
115,monte carmelo,45,BR,1562201940,55,-18.73,-47.5,66.5,4.68
116,port blair,75,IN,1562201775,89,11.67,92.75,84.2,6.93
117,upernavik,66,GL,1562201940,83,72.79,-56.15,41.12,8.25
118,biak,93,ID,1562201940,93,-0.91,122.88,65.42,3.94
119,victoria,75,BN,1562201895,100,5.28,115.24,78.01,3.36
120,tuatapere,93,NZ,1562201941,88,-46.13,167.69,45.0,1.99
121,aitape,69,PG,1562201941,62,-3.15,142.36,83.6,1.34
122,thompson,75,CA,1562201941,55,55.74,-97.86,60.8,11.41
123,saint-joseph,0,FR,1562201941,83,43.56,6.97,80.6,3.36
124,lebu,75,ET,1562201941,93,8.96,38.73,57.2,4.7
125,severo-kurilsk,100,RU,1562201942,98,50.68,156.12,42.2,10.51
126,san patricio,0,PY,1562201942,71,-26.98,-56.83,44.36,5.41
127,chupa,0,PE,1562201942,12,-15.11,-69.99,48.2,3.36
128,nanortalik,1,GL,1562201942,79,60.14,-45.24,40.94,3.09
129,cravo norte,2,CO,1562201943,89,6.3,-70.2,76.76,4.99
130,hasaki,75,JP,1562201943,94,35.73,140.83,77.0,8.05
131,mahebourg,1,MU,1562201704,86,-20.41,57.7,70.0,6.69
132,abalak,93,NE,1562201943,26,15.46,6.28,95.84,10.29
133,kaseda,75,JP,1562201943,94,31.42,130.32,75.2,1.12
134,huarmey,0,PE,1562201833,86,-10.07,-78.15,62.9,14.29
135,pisco,90,PE,1562201773,82,-13.71,-76.2,62.6,10.29
136,kodiak,1,US,1562201944,25,39.95,-94.76,86.0,10.29
137,angoche,1,MZ,1562201944,91,-16.23,39.91,68.3,4.07
138,cabo san lucas,5,MX,1562201892,54,22.89,-109.91,91.0,11.41
139,new norfolk,20,AU,1562201944,81,-42.78,147.06,44.6,6.93
140,tateyama,75,JP,1562201945,83,36.66,137.31,84.0,2.24
141,zyryanka,100,RU,1562201945,60,65.73,150.89,59.12,13.4
142,bluff,65,AU,1562201945,66,-23.58,149.07,66.14,19.53
143,honningsvag,99,NO,1562201945,97,70.98,25.97,43.64,9.01
144,kaitangata,64,NZ,1562201945,75,-46.28,169.85,45.0,11.01
145,san quintin,100,PH,1562201946,82,17.54,120.52,80.54,2.55
146,anzio,0,IT,1562201946,53,41.45,12.63,77.0,4.7
147,mezen,98,RU,1562201946,97,65.85,44.24,55.34,1.83
148,acapulco,20,MX,1562201882,59,16.86,-99.88,89.6,8.05
149,fortuna,0,ES,1562201946,78,38.18,-1.13,75.2,5.82
150,korgen,27,NO,1562201946,100,66.08,13.83,30.2,3.29
151,simplicio mendes,36,BR,1562201947,44,-7.85,-41.91,81.62,2.91
152,leh,0,IN,1562201947,46,34.16,77.58,34.28,3.04
153,narsaq,0,GL,1562201947,50,60.91,-46.05,53.6,5.82
154,florianopolis,75,BR,1562201771,63,-27.6,-48.55,66.0,5.82
155,reforma,90,MX,1562201947,35,24.02,-104.65,71.6,17.22
156,nurota,0,UZ,1562201948,42,40.56,65.69,62.6,4.7
157,codrington,90,AU,1562201948,88,-28.95,153.24,66.2,8.05
158,yulara,0,AU,1562201948,34,-25.24,130.99,51.8,12.75
159,kem,81,UG,1562201948,93,2.68,33.77,64.7,0.78
160,youghal,0,IE,1562201948,87,51.95,-7.85,55.0,1.12
161,sterling,75,US,1562201947,61,39.0,-77.4,88.0,8.05
162,mehamn,100,NO,1562201949,97,71.03,27.85,42.56,12.8
163,faanui,83,PF,1562201949,75,-16.48,-151.75,76.22,31.61
164,dikson,99,RU,1562201949,82,73.51,80.55,36.62,10.76
165,katsuura,75,JP,1562201949,83,33.93,134.5,78.8,4.7
166,carnarvon,0,ZA,1562201949,33,-30.97,22.13,44.9,6.98
167,mar del plata,12,AR,1562201950,75,-46.43,-67.52,29.6,5.97
168,beringovskiy,0,RU,1562201950,40,63.05,179.32,68.48,9.66
169,namibe,26,AO,1562201950,82,-15.19,12.15,69.2,9.78
170,avera,1,US,1562201950,79,33.19,-82.53,91.0,1.68
171,altay,33,CN,1562201950,53,47.83,88.13,60.2,5.5
172,pitimbu,20,BR,1562201951,100,-7.47,-34.81,75.2,1.12
173,melilla,20,EC,1562201951,83,-0.8,-80.23,75.2,9.17
174,atuona,92,PF,1562201780,65,-9.8,-139.03,80.72,5.66
175,yeppoon,75,AU,1562201951,53,-23.13,150.74,73.4,17.22
176,bradford,0,GB,1562201819,81,53.79,-1.75,57.0,6.93
177,te anau,48,NZ,1562201951,87,-45.41,167.72,41.3,4.07
178,kadiri,90,IN,1562201951,71,14.11,78.16,75.32,13.51
179,east london,0,ZA,1562201952,68,-33.02,27.91,51.92,3.09
180,nauta,85,PE,1562201952,92,-4.51,-73.58,74.24,1.52
181,atar,20,MR,1562201952,11,20.52,-13.05,99.26,15.75
182,sechura,5,PE,1562201952,84,-5.56,-80.82,65.06,14.99
183,bhabua,0,IN,1562201952,62,25.04,83.61,85.22,2.21
184,sobolevo,0,RU,1562201953,95,54.43,31.9,45.62,9.51
185,brae,100,GB,1562201953,100,60.4,-1.35,51.8,19.46
186,port hedland,0,AU,1562201953,32,-20.31,118.58,69.8,8.05
187,hami,0,CN,1562201953,9,42.84,93.51,83.42,13.67
188,bokovskaya,10,RU,1562201953,83,49.23,41.83,63.8,4.47
189,cape coast,100,GH,1562201954,91,5.11,-1.24,76.4,10.49
190,panaba,0,MX,1562201954,79,21.28,-88.27,81.8,12.21
191,taber,75,CA,1562201954,30,49.79,-112.14,71.6,4.7
192,ulaanbaatar,20,MN,1562201788,52,47.92,106.92,68.0,4.47
193,mumford,100,GH,1562201954,95,5.26,-0.76,74.24,4.29
194,buchanan,75,LR,1562201954,94,5.88,-10.05,77.0,3.36
195,auki,86,NG,1562201955,70,12.18,6.51,79.64,9.51
196,nome,1,US,1562201955,88,30.04,-94.42,86.0,3.36
197,shimoda,75,JP,1562201955,94,34.7,138.93,75.2,31.09
198,sidney,1,US,1562201823,83,40.28,-84.16,78.01,1.83
199,cuamba,4,MZ,1562201955,81,-14.8,36.54,62.72,10.22
200,smidovich,100,RU,1562201955,89,48.6,133.81,66.32,4.94
201,talavera,0,PE,1562201956,87,-13.65,-73.43,47.06,4.0
202,stupava,0,SK,1562201956,48,48.27,17.03,64.99,4.7
203,cidreira,0,BR,1562201956,59,-30.17,-50.22,49.04,11.43
204,nikolskoye,90,RU,1562201956,87,59.7,30.79,55.0,13.42
205,rio gallegos,0,AR,1562201956,92,-51.62,-69.22,24.8,4.7
206,tocopilla,99,CL,1562201957,81,-22.09,-70.2,57.68,9.84
207,yatou,75,CM,1562201957,94,3.63,9.81,77.0,1.12
208,pangnirtung,99,CA,1562201957,45,66.15,-65.72,50.84,5.64
209,berwick,1,US,1562201957,74,29.69,-91.22,87.01,3.36
210,sitka,0,US,1562201957,52,37.17,-99.65,90.0,15.01
211,touros,75,BR,1562201957,100,-5.2,-35.46,75.2,3.36
212,hofn,100,IS,1562201958,98,64.25,-15.21,40.76,1.88
213,laguna,40,BZ,1562201958,70,16.17,-88.94,84.2,4.7
214,oistins,40,BB,1562201958,78,13.07,-59.53,82.4,19.46
215,jimenez,20,PA,1562201958,88,8.54,-82.37,80.6,5.82
216,hobyo,87,SO,1562201959,70,5.35,48.53,76.76,23.58
217,ornskoldsvik,0,SE,1562201959,70,63.29,18.72,44.6,5.82
218,geraldton,40,CA,1562201959,44,49.72,-86.95,78.8,5.82
219,nenjiang,19,CN,1562201959,74,49.17,125.23,68.12,11.48
220,guane,21,CU,1562201960,75,22.2,-84.09,84.5,14.88
221,half moon bay,75,US,1562201717,82,37.46,-122.43,72.0,9.17
222,foam lake,50,CA,1562201960,62,51.65,-103.53,63.26,9.75
223,nosy varika,9,MG,1562201960,94,-20.58,48.53,63.62,4.83
224,massaguet,0,TD,1562201960,74,12.48,15.44,78.8,9.17
225,rauma,0,FI,1562201960,87,61.13,21.5,42.8,2.24
226,varhaug,90,NO,1562201961,81,58.61,5.65,52.0,6.93
227,castro,20,CL,1562201961,100,-42.48,-73.76,37.4,3.36
228,ancud,20,CL,1562201961,100,-41.87,-73.83,37.4,3.36
229,nampa,1,US,1562201823,23,43.57,-116.56,81.0,11.41
230,entre rios,2,BR,1562201961,98,-11.94,-38.08,68.66,4.79
231,bonthe,96,SL,1562201961,90,7.53,-12.5,77.48,6.78
232,kasangulu,56,CD,1562201962,78,-4.59,15.17,73.4,9.17
233,faya,0,SA,1562201962,30,18.39,42.45,69.8,5.39
234,wanxian,100,CN,1562201962,95,30.8,108.39,67.76,4.85
235,beboto,97,TD,1562201962,80,8.27,16.94,75.5,4.34
236,maniitsoq,36,GL,1562201962,72,65.42,-52.9,44.72,3.29
237,nishihara,75,JP,1562201963,88,35.74,139.53,79.0,6.93
238,pomabamba,0,PE,1562201963,62,-8.82,-77.46,42.74,2.93
239,pervoye maya,0,KG,1562201963,95,40.63,73.68,73.99,5.99
240,goderich,74,CA,1562201926,85,43.74,-81.71,69.01,6.71
241,alyangula,28,AU,1562201963,73,-13.85,136.42,75.2,6.93
242,port shepstone,0,ZA,1562201963,61,-30.74,30.45,52.64,6.31
243,slagelse,37,DK,1562201964,76,55.41,11.35,55.0,8.05
244,ati,52,TD,1562201964,46,13.21,18.34,87.74,7.43
245,rawson,46,AR,1562201964,74,-43.3,-65.11,33.02,14.83
246,never,100,RU,1562201964,44,53.98,124.16,57.68,8.81
247,ostrovnoy,100,RU,1562201964,97,68.05,39.51,46.88,6.29
248,isiro,100,CD,1562201965,99,2.77,27.62,67.58,2.64
249,yarmouth,20,CA,1562201965,82,43.84,-66.12,64.99,5.82
250,margate,20,AU,1562201965,81,-43.03,147.26,44.6,6.93
251,north bend,1,US,1562201965,72,43.41,-124.22,66.0,16.11
252,hokitika,0,NZ,1562201966,65,-42.72,170.96,50.66,1.39
253,maniwaki,32,CA,1562201966,65,46.38,-75.98,74.06,0.72
254,paraiso,40,BR,1562201966,94,-0.03,-51.17,82.4,8.05
255,haines junction,100,CA,1562201966,49,60.75,-137.51,64.88,4.59
256,carbondale,1,US,1562201966,78,38.82,-95.69,82.99,4.7
257,kavieng,61,PG,1562201967,71,-2.57,150.8,83.42,7.16
258,yenagoa,100,NG,1562201967,96,4.92,6.26,74.42,4.12
259,ahipara,100,NZ,1562201967,92,-35.17,173.16,57.14,36.86
260,boddam,40,GB,1562201967,71,57.47,-1.78,57.2,11.41
261,puri,68,ID,1562201967,85,-7.54,112.45,74.42,2.15
262,chokurdakh,100,RU,1562201967,75,70.62,147.9,42.02,5.39
263,barcelos,81,BR,1562201968,95,-0.97,-62.93,74.78,2.01
264,tigil,0,RU,1562201968,44,57.8,158.67,64.34,9.08
265,jabinyanah,0,TN,1562201968,64,35.03,10.91,75.2,3.36
266,manyana,75,AU,1562201968,100,-35.26,150.51,62.01,10.29
267,ponta delgada,40,PT,1562201968,77,37.73,-25.67,68.0,6.93
268,aleksandrovskiy zavod,63,RU,1562201969,92,50.92,117.94,57.86,8.86
269,dafeng,56,CN,1562201969,68,33.2,120.46,78.92,5.06
270,ko samui,20,TH,1562201969,66,9.54,99.94,86.0,4.7
271,qasigiannguit,0,GL,1562201970,76,68.82,-51.19,48.2,4.7
272,kimbe,52,PG,1562201970,58,-5.56,150.15,86.84,2.73
273,pochutla,90,MX,1562201970,62,15.74,-96.47,86.0,3.2
274,bandarbeyla,22,SO,1562201812,47,9.49,50.81,80.72,23.11
275,poum,2,MK,1562201970,77,41.28,20.71,62.36,3.65
276,padang,80,ID,1562201971,77,-0.92,100.36,81.44,5.79
277,grande prairie,75,CA,1562201971,72,55.17,-118.79,59.0,14.99
278,seoul,1,KR,1562201927,61,37.57,126.98,80.6,2.24
279,rocha,0,UY,1562201971,75,-34.48,-54.34,40.76,14.07
280,palmer,75,AU,1562201971,66,-34.85,139.16,57.0,3.36
281,salalah,90,OM,1562201972,88,17.01,54.1,82.4,2.24
282,port lincoln,0,AU,1562201972,78,-34.72,135.86,56.24,14.5
283,tezu,100,IN,1562201972,97,27.93,96.16,74.06,3.74
284,sabang,83,PH,1562201972,74,13.8,121.11,81.44,2.66
285,adrar,2,DZ,1562201972,13,27.87,-0.29,95.0,8.05
286,kerema,100,PG,1562201973,84,-7.96,145.78,77.48,17.27
287,tinaquillo,0,VE,1562201973,98,9.92,-68.31,66.5,2.77
288,sao miguel do araguaia,0,BR,1562201973,38,-13.28,-50.16,72.8,3.36
289,trindade,0,BR,1562201973,63,-16.66,-49.49,66.2,4.7
290,terre-de-bas,20,GP,1562201973,78,15.85,-61.64,80.6,6.93
291,arman,0,RU,1562201974,53,59.7,150.17,58.4,6.73
292,alpena,1,US,1562201974,57,45.06,-83.43,78.8,3.71
293,alofi,75,NU,1562201974,69,-19.06,-169.92,78.8,18.34
294,san jose,1,HN,1562201727,58,14.25,-87.96,84.2,10.29
295,tacuarembo,0,UY,1562201826,83,-31.73,-55.98,38.24,8.5
296,zhangjiakou,34,CN,1562201975,36,40.77,114.88,69.56,5.61
297,vagur,100,FO,1562201975,97,61.47,-6.81,50.3,23.13
298,brodokalmak,20,RU,1562201975,93,55.57,62.07,55.4,8.95
299,nkoteng,100,CM,1562201975,99,4.5,12.12,69.2,2.44
300,charleville,90,AU,1562201976,48,-26.41,146.24,64.4,13.87
301,hithadhoo,47,MV,1562201976,78,-0.6,73.08,83.42,11.9
302,labuan,75,BN,1562201961,100,5.28,115.24,78.01,3.36
303,kyshtovka,100,RU,1562201976,91,56.56,76.62,57.68,9.62
304,balabac,77,PH,1562201976,76,7.99,117.06,83.78,7.05
305,dingle,97,PH,1562201976,78,11.0,122.67,80.72,5.12
306,saint george,20,GR,1562201946,49,39.45,22.34,71.6,0.6
307,leningradskiy,93,RU,1562201977,93,69.38,178.42,37.34,3.8
308,guarapari,0,BR,1562201977,78,-20.67,-40.5,77.0,12.75
309,fuerte olimpo,100,BR,1562201977,95,-21.04,-57.87,60.92,7.72
310,segou,0,SN,1562201977,79,12.41,-12.29,84.2,4.7
311,ambilobe,26,MG,1562201977,80,-13.19,49.05,69.02,5.97
312,goundam,27,ML,1562201978,27,16.42,-3.66,98.0,17.13
313,suhbaatar,100,MN,1562201978,70,50.23,106.21,67.94,5.14
314,pecos,1,US,1562201978,26,31.42,-103.49,98.6,16.11
315,vossevangen,100,NO,1562201978,96,60.63,6.42,46.99,1.01
316,hohhot,20,CN,1562201978,52,40.81,111.65,69.8,2.24
317,torbay,90,CA,1562201879,87,47.66,-52.73,53.01,13.87
318,bereda,0,ES,1562201979,88,43.27,-7.54,66.99,2.24
319,mogadishu,100,SO,1562201923,83,2.04,45.34,74.06,10.4
320,inhambane,0,MZ,1562201979,85,-23.87,35.38,56.6,1.81
321,nyagan,93,RU,1562201979,80,62.14,65.43,65.6,3.22
322,nantucket,1,US,1562201979,77,41.28,-70.1,73.99,5.82
323,xuddur,20,SO,1562201980,67,4.12,43.89,71.9,18.14
324,kahului,40,US,1562201885,52,20.89,-156.47,89.6,20.8
325,zhuhai,20,CN,1562201980,52,40.71,112.04,69.8,2.24
326,golden,1,US,1562201896,16,39.76,-105.22,89.6,4.7
327,aklavik,90,CA,1562201980,38,68.22,-135.01,73.4,8.05
328,leszno,0,PL,1562201980,62,51.84,16.57,55.99,4.7
329,qandala,41,SO,1562201981,50,11.47,49.87,91.88,17.87
330,bubaque,100,GW,1562201981,80,11.28,-15.83,80.18,8.99
331,cascavel,20,BR,1562201981,87,-24.96,-53.44,54.08,11.7
332,puerto madryn,70,AR,1562201839,68,-42.77,-65.04,35.36,13.49
333,iqaluit,75,CA,1562201981,86,63.75,-68.52,41.0,16.11
334,sarangani,75,PH,1562201982,77,5.4,125.46,80.72,6.87
335,hambantota,40,LK,1562201982,100,6.12,81.12,78.8,6.93
336,bonavista,100,CA,1562201982,86,48.65,-53.11,53.01,1.99
337,pangai,75,TO,1562201982,69,-19.8,-174.35,78.8,17.22
338,formosa,0,BR,1562201982,34,-15.55,-47.33,65.96,3.27
339,aksarka,9,RU,1562201983,65,66.56,67.8,70.82,6.91
340,kimry,100,RU,1562201983,75,56.88,37.35,50.48,12.66
341,mount gambier,90,AU,1562201827,81,-37.83,140.78,51.8,13.87
342,thinadhoo,73,MV,1562201983,78,0.53,72.93,83.42,12.73
343,luderitz,0,NA,1562201983,81,-26.65,15.16,53.6,4.7
344,los llanos de aridane,75,ES,1562201983,73,28.66,-17.92,69.8,16.11
345,longyearbyen,40,NO,1562201984,75,78.22,15.63,44.6,11.41
346,kamenka,8,MD,1562201984,85,48.03,28.7,57.0,4.56
347,burns lake,100,CA,1562201984,94,54.23,-125.76,49.94,5.79
348,torrington,75,US,1562201985,39,42.06,-104.18,84.2,20.8
349,zheleznodorozhnyy,40,RU,1562201985,81,55.75,38.0,53.01,8.95
350,ipixuna,0,BR,1562201985,88,-1.76,-48.8,77.0,5.82
351,pathein,100,MM,1562201705,87,16.78,94.73,79.82,9.93
352,nyurba,30,RU,1562201985,49,63.29,118.35,53.72,5.77
353,howard springs,0,AU,1562201986,57,-12.5,131.05,77.0,8.05
354,sao joao da barra,1,BR,1562201958,64,-21.64,-41.05,72.8,2.53
355,saint-denis,0,FR,1562201986,63,48.94,2.36,64.0,10.29
356,nara,75,JP,1562201986,88,34.68,135.8,82.0,4.7
357,littleton,40,US,1562201826,21,39.61,-105.02,89.6,13.87
358,akureyri,90,IS,1562201969,87,65.68,-18.09,50.0,3.36
359,riachao das neves,0,BR,1562201986,52,-11.75,-44.91,69.2,3.38
360,wahpeton,1,US,1562201987,61,46.27,-96.61,84.2,5.82
361,christchurch,90,NZ,1562201736,71,-43.53,172.64,54.0,16.11
362,phultala,80,BD,1562201987,86,22.7,89.52,82.16,4.16
363,bilibino,99,RU,1562201987,50,68.06,166.44,52.82,4.74
364,basoko,98,CD,1562201987,81,1.23,23.61,74.96,1.41
365,zhigansk,50,RU,1562201987,49,66.77,123.37,53.54,9.55
366,nouadhibou,0,MR,1562201988,73,20.93,-17.03,69.8,20.8
367,charters towers,56,AU,1562201988,59,-20.07,146.27,64.88,8.43
368,namtsy,20,RU,1562201988,48,62.72,129.66,62.6,4.47
369,eureka,75,US,1562201760,77,40.8,-124.16,66.0,16.11
370,beya,0,RU,1562201989,84,53.05,90.92,56.78,1.68
371,kendari,99,ID,1562201989,91,-3.99,122.52,76.58,1.23
372,moree,0,AU,1562201989,48,-29.46,149.84,66.99,10.29
373,roald,100,NO,1562201989,93,62.58,6.12,46.4,9.17
374,novoorsk,0,RU,1562201989,82,51.38,58.98,62.6,11.18
375,southbridge,1,US,1562201990,51,42.08,-72.03,82.4,3.36
376,arlit,31,NE,1562201990,10,18.74,7.39,96.92,11.14
377,amreli,100,IN,1562201990,77,21.6,71.21,81.08,7.45
378,concarneau,0,FR,1562201990,72,47.88,-3.92,61.0,10.29
379,monywa,100,MM,1562201991,77,22.12,95.13,81.62,9.51
380,karratha,41,AU,1562201991,51,-20.74,116.85,69.56,6.44
381,voskresenskoye,0,RU,1562201991,90,56.84,45.43,50.84,8.41
382,san angelo,1,US,1562201991,43,31.46,-100.44,91.4,8.05
383,broken hill,0,AU,1562201991,71,-31.97,141.45,50.0,11.41
384,lake charles,1,US,1562201703,78,30.23,-93.22,84.2,3.36
385,jiazi,0,CN,1562201992,83,19.61,110.49,84.2,11.18
386,luba,100,PH,1562201992,82,17.32,120.7,80.54,2.55
387,kuching,75,MY,1562201963,100,1.56,110.34,75.2,1.43
388,cavalcante,0,BR,1562201992,46,-13.79,-47.46,61.28,1.39
389,riihimaki,0,FI,1562201992,70,60.74,24.78,50.0,12.75
390,arrifes,40,PT,1562201993,77,37.77,-25.7,68.0,6.93
391,verkhoyansk,86,RU,1562201993,63,67.55,133.39,48.5,9.66
392,benjamin constant,75,BR,1562201993,94,-4.38,-70.03,78.8,3.42
393,antofagasta,90,CL,1562201993,67,-23.65,-70.4,57.2,6.93
394,bethlehem,75,US,1562201862,83,40.62,-75.38,82.0,3.6
395,paamiut,1,GL,1562201993,80,61.99,-49.67,42.56,6.91
396,yuncheng,100,CN,1562201994,41,35.03,111.0,79.82,16.51
397,forest hills,0,ZA,1562201994,87,-29.76,30.83,51.01,1.12
398,lhokseumawe,100,ID,1562201994,71,5.18,97.15,71.0,3.24
399,santiago del estero,0,AR,1562201994,51,-27.8,-64.26,52.1,5.41
400,dalby,20,AU,1562201994,63,-27.18,151.26,64.4,24.16
401,piacabucu,0,BR,1562201995,88,-10.41,-36.43,75.68,5.5
402,baykit,0,RU,1562201995,43,61.68,96.39,68.48,3.18
403,tabou,100,CI,1562201995,92,4.42,-7.36,74.24,4.36
404,verkhnyaya inta,18,RU,1562201995,61,65.99,60.32,69.56,9.06
405,isangel,90,VU,1562201995,74,-19.55,169.27,78.8,9.17
406,czersk,12,PL,1562201996,80,53.8,17.98,52.0,7.54
407,sungaipenuh,88,ID,1562201996,82,-2.08,101.38,73.7,2.57
408,bambanglipuro,28,ID,1562201996,87,-7.95,110.28,74.24,4.38
409,atambua,3,ID,1562201996,71,-9.11,124.89,75.68,14.29
410,ormara,1,PK,1562201996,87,25.21,64.64,80.0,5.12
411,kapuskasing,75,CA,1562201997,48,49.42,-82.43,82.4,4.7
412,mirosov,0,CZ,1562201997,70,49.69,13.66,53.01,4.7
413,manta,0,RO,1562201997,93,45.1,24.1,62.0,7.23
414,muros,20,ES,1562201997,88,42.77,-9.06,64.99,2.24
415,talnakh,0,RU,1562201998,49,69.49,88.39,73.4,6.71
416,maine-soroa,92,NE,1562201998,39,13.21,12.02,91.7,5.19
417,iwanai,99,JP,1562201998,64,42.97,140.51,71.18,3.87
418,quatre cocos,1,MU,1562201704,86,-20.21,57.76,70.0,6.69
419,banda aceh,100,ID,1562201998,77,5.56,95.32,83.96,16.91
420,alice springs,0,AU,1562201999,37,-23.7,133.88,51.8,4.7
421,fort nelson,75,CA,1562201999,40,58.81,-122.69,68.0,4.7
422,kutum,54,SD,1562201999,40,14.2,24.66,81.62,6.49
423,det udom,90,TH,1562201999,83,14.9,105.08,77.0,5.82
424,pacific grove,1,US,1562201999,60,36.62,-121.92,79.0,17.22
425,curillo,29,CO,1562202000,79,1.03,-75.92,76.76,3.91
426,lewisburg,1,US,1562202000,94,40.96,-76.88,82.4,0.96
427,zilupe,0,RU,1562201767,80,56.39,28.12,47.78,9.33
428,chekmagush,0,RU,1562202000,94,55.14,54.65,55.7,8.72
429,atocha,0,AR,1562202000,81,-24.82,-65.48,51.8,3.36
430,segezha,23,RU,1562202001,97,63.74,34.31,48.68,3.74
431,bay roberts,90,CA,1562202001,87,47.58,-53.28,53.01,13.87
432,rohru,0,IN,1562202001,52,31.2,77.75,61.1,4.27
433,ayr,99,AU,1562202001,65,-19.58,147.4,75.0,5.17
434,mayna,0,RU,1562202002,75,53.0,91.49,57.68,0.6
435,shahrud,0,IR,1562202002,41,36.42,54.97,58.4,3.51
436,ahuimanu,40,US,1562202003,78,21.44,-157.84,87.8,10.29
437,lingao,61,CN,1562202003,74,19.91,109.69,83.24,7.09
438,port said,0,EG,1562202003,22,25.34,30.55,83.42,10.96
439,lalsk,25,RU,1562202003,98,60.74,47.59,49.76,5.48
440,manggar,70,ID,1562202004,87,-2.88,108.27,78.92,4.14
441,college,75,US,1562202004,44,64.86,-147.8,79.0,10.29
442,ghanzi,0,BW,1562202004,23,-21.7,21.65,45.8,2.3
443,touba,50,SN,1562202004,56,14.86,-15.88,80.0,11.39
444,asyut,0,EG,1562202005,39,27.18,31.19,82.4,11.41
445,hamilton,40,CA,1562201796,57,43.26,-79.87,82.0,4.7
446,osnabruck,0,DE,1562202005,81,52.27,8.05,55.0,2.24
447,vardo,1,US,1562202005,74,39.62,-77.74,84.2,1.3
448,campbellton,1,CA,1562202005,87,48.0,-66.68,62.72,2.17
449,sale,0,AU,1562202005,98,-38.11,147.06,48.99,2.95
450,flinders,75,AU,1562202006,100,-34.58,150.85,57.99,10.29
451,victoria falls,0,ZW,1562202006,56,-17.93,25.84,56.42,3.85
452,platteville,1,US,1562202006,83,42.73,-90.48,86.0,3.36
453,vaitape,83,PF,1562202006,75,-16.52,-151.75,76.22,31.61
454,ous,100,RU,1562202007,92,60.91,61.52,58.58,4.05
455,petropavlovsk-kamchatskiy,75,RU,1562202007,87,53.05,158.65,53.6,6.71
456,xai-xai,0,MZ,1562202007,86,-25.04,33.64,56.42,2.48
457,faridpur,75,BD,1562202007,88,23.6,89.84,82.4,11.41
458,vao,100,EE,1562202008,59,59.1,26.19,52.64,9.22
459,gamba,100,CN,1562202008,71,28.28,88.52,42.92,1.97
460,belmonte,100,PT,1562202008,58,40.36,-7.35,62.01,1.14
461,cherskiy,88,RU,1562202008,51,68.75,161.3,54.44,7.81
462,yabrud,0,SY,1562202009,68,33.97,36.66,68.0,13.87
463,gravdal,90,NO,1562202009,87,59.79,5.78,52.0,12.75
464,lexington,40,US,1562201803,94,38.05,-84.5,73.4,6.15
465,sur,31,OM,1562202009,68,22.57,59.53,82.7,6.76
466,keetmanshoop,0,NA,1562202009,30,-26.57,18.15,53.6,9.17
467,kirove,41,UA,1562202009,58,47.83,38.01,72.62,7.43
468,horta,40,BR,1562202010,78,-10.93,-37.66,80.6,6.93
469,beloha,0,MG,1562202010,86,-25.17,45.06,59.3,3.18
470,vanavara,0,RU,1562202010,48,60.35,102.28,66.32,0.81
471,anloga,99,GH,1562202010,87,5.79,0.9,76.94,11.65
472,yumen,41,CN,1562202010,14,40.29,97.04,81.26,5.61
473,lima,90,PE,1562202002,82,-12.06,-77.04,62.6,4.7
474,mathathane,0,BW,1562202011,52,-22.27,28.75,50.84,6.67
475,tynda,12,RU,1562202011,44,55.15,124.74,51.2,11.18
476,ixtapa,40,MX,1562202011,35,20.71,-105.21,87.8,11.41
477,beyneu,0,KZ,1562202011,45,45.32,55.19,76.94,6.22
478,ouadda,100,CF,1562202011,94,8.07,22.4,68.66,3.33
479,korsor,37,DK,1562202012,76,55.33,11.14,54.0,8.05
480,laem sing,100,TH,1562202012,98,12.48,102.07,87.01,16.06
481,samarai,77,PG,1562202012,75,-10.62,150.67,76.94,6.17
482,tilichiki,100,RU,1562202012,58,60.47,166.1,63.62,6.53
483,diamantino,98,BR,1562202012,49,-14.4,-56.44,79.28,4.38
484,twentynine palms,1,US,1562202013,7,34.14,-116.05,107.6,10.29
485,ranong,75,TH,1562202013,83,9.96,98.62,84.2,5.82
486,mouila,94,GA,1562202013,76,-1.86,11.06,71.0,1.54
487,panama city,1,US,1562202013,70,30.16,-85.65,87.01,10.29
488,kenmare,19,IE,1562202014,90,51.88,-9.58,51.92,3.74
489,kyren,100,RU,1562202014,92,51.68,102.13,51.38,7.4
490,xining,0,CN,1562202014,61,36.62,101.77,53.9,1.34
491,sidhi,16,IN,1562202014,81,24.41,81.88,80.9,6.11
492,esperance,25,AU,1562201936,62,-33.86,121.89,51.8,21.92
493,gediz,0,TR,1562202014,45,38.99,29.39,67.04,6.73
494,itoman,75,JP,1562202015,83,26.12,127.67,84.2,12.75
495,smithers,75,CA,1562201881,50,54.78,-127.17,75.2,9.17
496,sarankhola,85,BD,1562202015,87,22.31,89.79,81.62,2.66
497,srednekolymsk,100,RU,1562202015,45,67.46,153.71,60.2,3.98
498,mercedes,0,UY,1562202015,73,-33.25,-58.03,42.01,4.0
499,kidal,43,ML,1562202015,22,18.44,1.41,95.48,4.5
500,high level,75,CA,1562202016,52,58.52,-117.13,64.4,11.41
501,ixtahuacan,18,GT,1562202016,64,15.42,-91.77,63.0,3.0
502,lensk,43,RU,1562202016,47,60.71,114.91,58.04,3.2
503,fengrun,0,CN,1562202016,33,39.83,118.12,84.68,3.85
504,palana,29,RU,1562202016,83,59.08,159.95,47.6,16.82
505,aswan,0,EG,1562202016,20,24.09,32.9,86.0,6.93
506,khani,75,GE,1562202017,93,41.96,42.96,66.2,3.36
507,mizan teferi,100,ET,1562202017,93,6.99,35.58,60.74,3.96
508,piotrkow trybunalski,0,PL,1562202017,81,51.41,19.7,51.01,2.24
509,shingu,75,JP,1562202017,94,33.72,135.99,73.4,3.36
510,burnie,0,AU,1562202017,55,-41.05,145.91,55.0,5.99
511,plettenberg bay,0,ZA,1562201791,69,-34.05,23.37,54.26,2.08
512,aykhal,90,RU,1562202018,87,65.95,111.51,50.0,6.71
513,isla mujeres,75,MX,1562202011,74,21.23,-86.73,86.0,8.05
514,matagami,100,NG,1562202018,92,9.67,8.4,70.46,1.43
515,cortez,1,US,1562202018,10,37.35,-108.58,87.8,12.75
516,kununurra,10,AU,1562202018,16,-15.77,128.74,77.0,11.41
517,puksoozero,46,RU,1562202018,95,62.59,40.61,49.94,2.82
518,winslow,0,GB,1562202019,81,51.94,-0.88,57.2,3.36
519,vilyuysk,30,RU,1562202019,51,63.75,121.63,55.34,9.19
520,kuito,0,AO,1562202019,49,-12.38,16.94,50.66,4.07
521,tongzi,100,CN,1562202019,91,28.78,105.09,68.66,8.12
522,nelson,64,CA,1562202019,45,49.49,-117.29,66.5,5.64
523,ampanihy,0,MG,1562202020,87,-24.69,44.75,58.94,2.84
524,humberto de campos,2,BR,1562202020,89,-2.6,-43.46,76.4,5.61
525,vostok,83,RU,1562202020,63,46.45,135.83,72.08,0.74
526,vesyegonsk,100,RU,1562202020,98,58.67,37.27,52.46,7.76
527,viedma,84,AR,1562202020,61,-40.81,-62.99,41.12,16.44
528,victor harbor,75,AU,1562202021,66,-35.55,138.62,57.0,3.36
529,gidam,100,IN,1562201888,96,18.98,81.4,72.62,2.93
530,simao,76,CN,1562202021,84,22.76,100.79,70.46,1.32
531,kalmunai,98,LK,1562202021,83,7.42,81.82,74.6,1.7
532,santa marta,40,CO,1562202021,52,11.24,-74.21,89.6,4.7
533,tete,0,MZ,1562202021,82,-16.16,33.59,68.0,6.93
534,warrnambool,41,AU,1562202022,91,-38.38,142.48,55.99,1.99
535,port pirie,0,AU,1562202022,71,-33.18,138.01,55.4,4.7
536,sambava,1,MG,1562202022,91,-14.27,50.17,63.26,3.58
537,whitley bay,0,GB,1562202022,93,55.04,-1.44,55.99,4.7
538,eqbaliyeh,0,IR,1562202022,33,35.3,51.54,78.8,5.82
539,dandong,0,CN,1562202022,69,40.12,124.37,75.86,7.11
540,jaltepec,99,MX,1562202023,78,20.11,-98.42,60.02,7.0
541,carutapera,0,BR,1562202023,83,-1.2,-46.02,78.38,6.13
